[
    {
        "name": "Elmer Gray Stadium",
        "category": "Campus",
        "city": "Abilene",
        "state": "Texas",
        "id": 1001,
        "isFeatured": true,
        "isFavorite": false,
        "park": "Stadium & Arenas",
        "coordinates": {
            "longitude": -99.710378,
            "latitude": 32.472275
        },
        "imageName": "footballfield"
    },
    {
        "name": "The World Famous Bean",
        "category": "Campus",
        "city": "Abilene",
        "state": "Texas",
        "id": 1002,
        "isFeatured": false,
        "isFavorite": false,
        "park": "Buffet",
        "coordinates": {
            "longitude": -99.708492,
            "latitude": 32.468857
        },
        "imageName": "thebean"
    },
    {
        "name": "Starbucks",
        "category": "Campus",
        "city": "Abilene",
        "state": "Texas",
        "id": 1003,
        "isFeatured": false,
        "isFavorite": true,
        "park": "Coffee & Tea",
        "coordinates": {
            "longitude": -99.709860,
            "latitude": 32.468831
        },
        "imageName": "starbucks"
    },
    {
        "name": "Faubus Fountain Lake",
        "category": "Campus",
        "city": "Abilene",
        "state": "Texas",
        "id": 1004,
        "isFeatured": false,
        "isFavorite": true,
        "park": "Galaxy Park",
        "coordinates": {
            "longitude": -99.704057,
            "latitude": 32.470881
        },
        "imageName": "theaculake"
    },
    {
        "name": "PrimeTime",
        "category": "Abilene",
        "city": "Abilene",
        "state": "Texas",
        "id": 1005,
        "isFeatured": false,
        "isFavorite": true,
        "park": "Fun center",
        "coordinates": {
            "longitude": -99.717498,
            "latitude": 32.394739
        },
        "imageName": "primetime"
    },
    {
        "name": "Cinemark",
        "category": "Abilene",
        "city": "Abilene",
        "state": "Texas",
        "id": 1006,
        "isFeatured": false,
        "isFavorite": false,
        "park": "Movie theater",
        "coordinates": {
            "longitude": -99.711786,
            "latitude": 32.487084
        },
        "imageName": "movies"
    },
    {
        "name": "Chipotle Mexican Grill",
        "category": "Abilene",
        "city": "Abilene",
        "state": "Texas",
        "id": 1007,
        "isFeatured": true,
        "isFavorite": true,
        "park": "Restaurant",
        "coordinates": {
            "longitude": -99.765341,
            "latitude": 32.405444
        },
        "imageName": "chipotle",
    },
    {
        "name": "Walmart",
        "category": "Abilene",
        "city": "Abilene",
        "state": "Texas",
        "id": 1008,
        "isFeatured": false,
        "isFavorite": false,
        "park": "Department store",
        "coordinates": {
            "longitude": -99.698002,
            "latitude": 32.480826
        },
        "imageName": "walmart"
    },
    {
        "name": "Santa Catalina Arch",
        "category": "Guatemala",
        "city": "Antigua",
        "state": "---",
        "id": 1009,
        "isFeatured": true,
        "isFavorite": true,
        "park": "Tourist attraction",
        "coordinates": {
            "longitude": -90.734267,
            "latitude": 14.559657
        },
        "imageName": "antigua"
    },
    {
        "name": "Paseo Cayala",
        "category": "Guatemala",
        "city": "Guatemala",
        "state": "---",
        "id": 1010,
        "isFeatured": false,
        "isFavorite": true,
        "park": "Shopping center",
        "coordinates": {
            "longitude": -90.486335,
            "latitude": 14.610212
        },
        "imageName": "cayala"
    },
    {
        "name": "The Great Jaguar Tikal",
        "category": "Guatemala",
        "city": "Peten",
        "state": "---",
        "id": 1011,
        "isFeatured": false,
        "isFavorite": false,
        "park": "Historical landmark",
        "coordinates": {
            "longitude": -89.623030,
            "latitude": 17.222127
        },
        "imageName": "tikal"
    },
    {
        "name": "Cerro de La Cruz",
        "category": "Guatemala",
        "city": "Antigua",
        "state": "---",
        "id": 1012,
        "isFeatured": false,
        "isFavorite": true,
        "park": "Tourist attraction & scenic spot",
        "coordinates": {
            "longitude": -90.731733,
            "latitude": 14.564208
        },
        "imageName": "lacruz"
    }
]

